{"version": 0.6, "generator": "Overpass API 0.7.62.8 e802775f", "osm3s": {"timestamp_osm_base": "2025-12-07T03:21:39Z", "copyright": "The data included in this document is from www.openstreetmap.org. The data is made available under ODbL."}, "elements": [{"type": "node", "id": 2375943305, "lat": 45.6388189, "lon": 25.6362041, "tags": {"amenity": "restaurant", "cuisine": "regional", "name": "Viena"}}, {"type": "node", "id": 2375944214, "lat": 45.6383463, "lon": 25.6357535, "tags": {"amenity": "restaurant", "cuisine": "regional", "name": "Ardealul"}}, {"type": "node", "id": 2677091085, "lat": 45.6426452, "lon": 25.6312636, "tags": {"amenity": "restaurant", "cuisine": "international", "name": "City Food", "website": "https://www.cityfood.ro/"}}, {"type": "node", "id": 3894774269, "lat": 45.6417477, "lon": 25.6274552, "tags": {"addr:city": "Bra\u0219ov", "addr:housenumber": "4A", "addr:street": "Strada Uranus", "amenity": "restaurant", "cuisine": "pizza", "delivery": "yes", "name": "Pizza Napoli", "opening_hours": "Sa-Su 10:00-22:00"}}, {"type": "node", "id": 8928445986, "lat": 45.6424738, "lon": 25.6239807, "tags": {"amenity": "restaurant", "cuisine": "regional", "name": "Ribs Garden"}}, {"type": "node", "id": 10805601791, "lat": 45.6383532, "lon": 25.6354945, "tags": {"amenity": "bar"}}, {"type": "node", "id": 11394396669, "lat": 45.6437784, "lon": 25.6277281, "tags": {"addr:city": "Bra\u0219ov", "addr:postcode": "500332", "amenity": "restaurant", "contact:facebook": "ChefsBoutique", "contact:instagram": "chefsboutique", "cuisine": "barbecue;breakfast;burger;coffee_shop;grill;local", "email": "office@chefsboutique.ro", "internet_access": "wlan", "name:en": "Chef's Boutique", "name:signed": "no", "opening_hours": "Mo-Su 09:30-22:00", "phone": "+40770674797", "website": "https://chefsboutique.ro/"}}, {"type": "node", "id": 11394396670, "lat": 45.6434237, "lon": 25.6251591, "tags": {"addr:city": "Bra\u0219ov", "addr:housenumber": "4", "addr:postcode": "500365", "addr:street": "Strada S\u0103celelor", "amenity": "restaurant", "name": "Casa \u021a\u0103r\u0103neasc\u0103", "opening_hours": "Mo-Su 10:00-23:00"}}, {"type": "node", "id": 11653411812, "lat": 45.6440688, "lon": 25.6309787, "tags": {"addr:city": "Bra\u0219ov", "addr:street": "Strada Uranus", "amenity": "cafe", "brand": "5 to go", "brand:wikidata": "Q115684369", "cuisine": "coffee_shop", "name": "5 to go", "takeaway": "yes"}}, {"type": "node", "id": 12137134305, "lat": 45.6422554, "lon": 25.6235718, "tags": {"amenity": "restaurant", "cuisine": "pizza", "name": "Four Star Pizza"}}, {"type": "node", "id": 12145886563, "lat": 45.6423083, "lon": 25.629886, "tags": {"amenity": "pub", "name": "La stuf"}}]}