{"version": 0.6, "generator": "Overpass API 0.7.62.8 e802775f", "osm3s": {"timestamp_osm_base": "2025-12-07T06:12:58Z", "copyright": "The data included in this document is from www.openstreetmap.org. The data is made available under ODbL."}, "elements": [{"type": "node", "id": 254723887, "lat": 45.6459222, "lon": 25.5938069, "tags": {"addr:city": "Bra\u0219ov", "artwork_type": "statue", "name": "Statuie Nicolae Titulescu", "tourism": "artwork"}}, {"type": "node", "id": 254724099, "lat": 45.6459948, "lon": 25.592141, "tags": {"addr:city": "Bra\u0219ov", "artwork_type": "statue", "name": "\u0218tefan Octavian Iosif", "tourism": "artwork"}}, {"type": "node", "id": 254724278, "lat": 45.6461343, "lon": 25.5921402, "tags": {"addr:city": "Bra\u0219ov", "artwork_type": "statue", "name": "Cincinat Pavelescu", "tourism": "artwork"}}, {"type": "node", "id": 288440741, "lat": 45.6460352, "lon": 25.5867137}, {"type": "node", "id": 288440742, "lat": 45.6460192, "lon": 25.5868649}, {"type": "node", "id": 288440743, "lat": 45.6458403, "lon": 25.5868263}, {"type": "node", "id": 288440744, "lat": 45.6458562, "lon": 25.5866751}, {"type": "node", "id": 289893898, "lat": 45.6468755, "lon": 25.5856789, "tags": {"addr:city": "Bra\u0219ov", "artwork_type": "sculpture", "name": "Marele Rulment", "tourism": "artwork"}}, {"type": "node", "id": 290005492, "lat": 45.6457418, "lon": 25.5872583, "tags": {"addr:city": "Bra\u0219ov", "artwork_type": "statue", "name": "Gheorghe Bari\u021biu", "tourism": "artwork"}}, {"type": "node", "id": 290005917, "lat": 45.6458455, "lon": 25.5867763}, {"type": "node", "id": 465488628, "lat": 45.6476882, "lon": 25.5962703, "tags": {"addr:city": "Bra\u0219ov", "addr:housename": "3A", "addr:housenumber": "3A", "addr:postcode": "500084", "addr:street": "Strada Maior Cran\u021b\u0103", "amenity": "restaurant", "check_date": "2024-10-02", "cuisine": "regional", "description": "CASA CRANTA:\"UN PETIT CHATEAU\" (ARHITECT SMIGELSCHI VICTOR) ESTE O CREATIE A ANILOR 1930 IN STIL BRANCOVENESC, CU O PANORAMA DE EXCEPTIE SPRE TAMPA SI CENTRUL ISTOIC. HOTELUL ARE APARTAMENTE DE LUX , PROTOCOL SI CAMERE CU DOTARI ULTRA MODERNE: BAI CU JAC", "email": "contact@casacranta.ro", "internet_access": "wlan", "name": "Casa Cran\u021ba", "opening_hours": "24/7", "phone": "+40268-476 992, +40740-117 812", "stars": "4", "tourism": "hotel", "website": "https://www.casacranta.ro/"}}, {"type": "node", "id": 506463582, "lat": 45.6455094, "lon": 25.5963702, "tags": {"historic": "memorial", "memorial": "statue", "name": "Troi\u021b\u0103"}}, {"type": "node", "id": 2777661425, "lat": 45.6533572, "lon": 25.5940756, "tags": {"source": "http://www.pug-puz.ro/ ; legea544/2001"}}, {"type": "node", "id": 2777661458, "lat": 45.6533587, "lon": 25.594167, "tags": {"source": "http://www.pug-puz.ro/ ; legea544/2001"}}, {"type": "node", "id": 2777663194, "lat": 45.653498, "lon": 25.5942644, "tags": {"source": "http://www.pug-puz.ro/ ; legea544/2001"}}, {"type": "node", "id": 2777663433, "lat": 45.6535096, "lon": 25.5941689, "tags": {"source": "http://www.pug-puz.ro/ ; legea544/2001"}}, {"type": "node", "id": 3786223666, "lat": 45.6464919, "lon": 25.5951281, "tags": {"addr:city": "Bra\u0219ov", "amenity": "cafe", "check_date": "2024-06-05", "cuisine": "coffee_shop", "internet_access": "wlan", "name": "Galleria Art & Coffe", "outdoor_seating": "yes", "smoking": "yes"}}, {"type": "node", "id": 6447383086, "lat": 45.650724, "lon": 25.5872335, "tags": {"addr:city": "Bra\u0219ov", "addr:housenumber": "66", "addr:postcode": "500058", "addr:street": "Strada Lung\u0103", "amenity": "restaurant", "cuisine": "international;european", "name": "Addiction", "name:en": "Addicton The Ranch", "name:ro": "Addicton The Ranch", "opening_hours": "Mo-Su 12:00-23:00", "phone": "+40 773 987 824", "website": "https://www.facebook.com/addictiontheranch/"}}, {"type": "node", "id": 11958146647, "lat": 45.6465525, "lon": 25.5963073, "tags": {"addr:city": "Bra\u0219ov", "amenity": "cafe", "check_date": "2024-06-05", "cuisine": "coffee_shop", "name": "Barista Coffe & Snacks"}}, {"type": "way", "id": 26327247, "nodes": [288440741, 288440744, 290005917, 288440743, 288440742, 288440741], "tags": {"addr:city": "Bra\u0219ov", "addr:housenumber": "1", "addr:postcode": "500041", "addr:street": "Strada \u0218irul Livezii", "amenity": "cafe", "building": "yes", "cuisine": "japanese", "internet_access": "yes", "name": "Kasho Lounge", "opening_hours": "Mo-Fr 09:00-01:00; Sa-Su 09:00-00:00", "outdoor_seating": "yes", "phone": "+40 757 500300", "website": "https://www.kasholounge.com/"}}, {"type": "way", "id": 272867858, "nodes": [2777663433, 2777663194, 2777661458, 2777661425, 2777663433], "tags": {"amenity": "cafe", "building": "yes", "cuisine": "regional", "name": "Aloha", "source": "http://www.pug-puz.ro/;legea544/2001"}}]}